City,Cloudiness,Country,Date,Humidity,Lat,Lng,Max Temp,Wind Speed
Canavieiras,100,BR,1580012070,94,-15.68,-38.95,77.23,3.27
Tutoia,100,BR,1580012070,94,-2.76,-42.27,77.41,1.68
Castro Alves,95,BR,1580012070,97,-12.77,-39.43,73.45,0.82
Dawson Creek,1,CA,1580012071,69,55.77,-120.24,33.8,1.0
Rikitea,0,PF,1580012071,77,-23.12,-134.97,79.11,4.57
Atambua,0,ID,1580011964,68,-9.11,124.89,84.45,2.64
Necochea,0,AR,1580011839,89,-38.55,-58.74,52.0,2.83
Sinnamary,100,GF,1580012009,83,5.38,-52.95,79.95,8.41
Yellowknife,90,CA,1580011932,85,62.46,-114.35,10.4,1.5
Iqaluit,20,CA,1580011962,66,63.75,-68.51,-29.0,6.7
Harper,26,LR,1580011796,96,4.38,-7.72,76.82,0.39
Carballo,55,ES,1580012074,93,43.21,-8.69,46.99,2.6
Barrow,20,US,1580011966,75,71.29,-156.79,-20.2,5.1
Curup,98,ID,1580012075,67,-3.47,102.53,80.29,0.24
Arraial do Cabo,0,BR,1580012075,82,-22.97,-42.03,75.16,3.02
Itarema,90,BR,1580012076,95,-2.92,-39.92,77.0,2.03
Latur,52,IN,1580012076,43,18.4,76.58,72.7,1.51
Kot Diji,0,PK,1580012077,87,27.34,68.71,53.6,2.83
Santiago de Cuba,20,CU,1580011777,73,20.02,-75.82,73.4,2.6
Albany,90,US,1580011489,93,42.6,-73.97,39.0,3.6
Ancud,76,CL,1580012003,93,-41.87,-73.82,57.2,2.1
Chui,3,UY,1580011994,80,-33.7,-53.46,65.59,2.44
Mossamedes,69,AO,1580012078,74,-15.2,12.15,74.68,5.6
Hermanus,83,ZA,1580012079,100,-34.42,19.23,57.99,3.58
Kapaa,40,US,1580011500,69,22.08,-159.32,78.8,2.1
New Norfolk,99,AU,1580011917,35,-42.78,147.06,71.6,9.3
Dikson,100,RU,1580012079,95,73.51,80.55,-5.84,2.41
Miami,5,US,1580011699,59,25.77,-80.19,66.0,1.5
Bluff,57,NZ,1580011419,52,-46.6,168.33,66.49,3.81
Jamestown,90,US,1580012037,97,42.1,-79.24,34.0,4.6
Saskylakh,99,RU,1580012033,93,71.92,114.08,-20.51,7.36
Kruisfontein,89,ZA,1580011927,87,-34.0,24.73,64.71,10.16
Port Lincoln,32,AU,1580012038,54,-34.73,135.87,74.1,4.55
Atuona,74,PF,1580012081,77,-9.8,-139.03,80.74,6.17
Codrington,100,AU,1580011971,78,-38.27,141.97,61.56,9.13
Concepcion,0,CL,1580011883,72,-36.83,-73.05,66.2,3.6
Acapulco de Juarez,20,MX,1580012059,78,16.86,-99.89,78.8,2.6
Vila Franca do Campo,40,PT,1580012081,82,37.72,-25.43,57.2,2.1
Sahibganj,0,IN,1580012083,61,25.25,87.65,58.35,2.04
Pangkalanbuun,100,ID,1580011968,93,-2.68,111.62,77.0,0.58
Tasiilaq,100,GL,1580011923,74,65.61,-37.64,28.4,17.0
Itimadpur,0,IN,1580012084,56,27.25,78.2,54.79,1.21
Boca do Acre,94,BR,1580012084,86,-8.75,-67.4,76.26,0.2
Berdigestyakh,33,RU,1580012085,96,62.1,126.7,-26.68,2.62
Auki,0,SB,1580012086,73,-8.77,160.7,83.89,1.82
Vaini,90,TO,1580011939,88,-21.2,-175.2,80.6,4.6
Hithadhoo,100,MV,1580011932,77,-0.6,73.08,82.49,4.36
Oussouye,50,SN,1580012087,83,12.48,-16.55,73.4,4.1
Fortuna,90,US,1580011991,87,40.6,-124.16,59.0,4.1
Muravlenko,88,RU,1580012087,95,63.79,74.52,-0.24,4.26
Pontianak,75,ID,1580012014,70,-0.03,109.33,86.0,2.1
Cape Town,40,ZA,1580011956,87,-33.93,18.42,61.0,2.6
Den Helder,90,NL,1580012088,100,52.96,4.76,36.0,5.7
Alta Floresta,100,BR,1580012088,96,-9.88,-56.09,71.01,1.55
Coyhaique,5,CL,1580012089,47,-45.58,-72.07,59.0,3.6
Lebu,0,CL,1580011666,85,-37.62,-73.65,61.23,3.48
Paamiut,86,GL,1580012090,64,61.99,-49.67,18.12,10.64
Hasaki,75,JP,1580011697,48,35.73,140.83,45.0,1.0
Vitim,100,RU,1580011924,79,59.45,112.56,22.46,6.78
Mar del Plata,0,AR,1580011940,76,-38.0,-57.56,64.99,3.41
Adre,0,TD,1580012091,24,13.47,22.2,52.05,8.06
Richards Bay,1,ZA,1580012091,81,-28.78,32.04,77.38,11.72
Mananjary,50,MG,1580012092,67,-21.22,48.33,76.86,3.68
George Town,20,MY,1580012092,58,5.41,100.34,87.8,4.6
Hobart,84,AU,1580011692,35,-42.88,147.33,71.6,9.3
Ust-Maya,48,RU,1580012092,94,60.42,134.53,-37.53,0.52
Pitimbu,20,BR,1580012093,88,-7.47,-34.81,80.6,2.1
Mataura,64,NZ,1580011483,58,-46.19,168.86,77.65,0.26
Nikolskoye,100,RU,1580012002,86,59.7,30.79,30.99,2.0
Ekhabi,0,RU,1580012094,85,53.51,142.97,-9.99,8.8
Oktyabrskoye,0,RU,1580011994,92,43.06,44.74,15.8,3.0
Evensk,100,RU,1580012094,87,61.95,159.23,15.19,9.46
Yamada,28,JP,1580012094,41,39.47,141.95,36.73,1.24
Puerto Leguizamo,100,CO,1580012095,93,-0.19,-74.78,75.33,0.92
Chipinge,100,ZW,1580012095,70,-20.19,32.62,63.75,1.41
Thompson,90,CA,1580011939,85,55.74,-97.86,17.6,1.0
Fort Nelson,90,CA,1580011951,92,58.81,-122.7,8.6,2.1
Chokurdakh,100,RU,1580011677,86,70.63,147.92,-22.23,2.68
Ushuaia,75,AR,1580012027,81,-54.8,-68.3,44.6,11.8
Yerbogachen,100,RU,1580012096,88,61.28,108.01,24.85,7.54
Kyaikto,74,MM,1580012097,28,17.3,97.02,75.25,0.21
Upernavik,100,GL,1580011687,94,72.79,-56.15,-14.24,3.4
Aksarayskiy,90,RU,1580012097,85,46.79,48.01,39.2,7.0
Quatre Cocos,40,MU,1580011938,78,-20.21,57.76,80.01,6.2
Marovoay,75,MG,1580012098,94,-16.1,46.63,75.2,2.1
Lorengau,85,PG,1580012098,71,-2.02,147.27,84.22,2.7
Novovarshavka,99,RU,1580012099,90,54.17,74.69,12.02,8.48
Port Alfred,80,ZA,1580011678,97,-33.59,26.89,66.99,3.58
Vardo,100,NO,1580012015,85,70.37,31.11,17.6,11.8
Tuatapere,98,NZ,1580012100,51,-46.13,167.68,65.64,2.13
Sola,75,VU,1580011973,70,-13.88,167.55,89.6,2.1
Clyde River,75,CA,1580011974,67,70.47,-68.59,-25.6,4.1
Linhares,100,BR,1580012101,97,-19.39,-40.07,73.44,1.18
Douglas,90,US,1580012101,92,41.3,-96.17,30.99,1.5
Khatanga,22,RU,1580011659,96,71.97,102.5,-23.94,1.18
Esperance,95,AU,1580011686,42,-33.87,121.9,82.4,4.1
Kumul,0,CN,1580012019,62,42.8,93.45,11.79,0.63
Saldanha,83,ZA,1580012103,87,-33.01,17.94,60.8,1.0
Qaanaaq,55,GL,1580011996,43,77.48,-69.36,-12.03,1.98
Maningrida,78,AU,1580012103,75,-12.07,134.27,85.01,7.82
Bethel,90,US,1580011982,100,41.37,-73.41,45.0,1.5
Airai,48,TL,1580011928,63,-8.93,125.41,82.2,1.47
Busselton,97,AU,1580011686,22,-33.65,115.33,93.0,2.34
Cockburn Town,0,TC,1580012105,74,21.46,-71.14,76.39,5.51
Henties Bay,0,NA,1580011932,96,-22.12,14.28,63.0,1.19
Carnarvon,13,AU,1580011917,58,-24.87,113.63,86.0,8.2
Mount Isa,40,AU,1580012106,83,-20.73,139.5,82.4,2.6
Jan Kempdorp,0,ZA,1580012106,69,-27.92,24.83,66.49,6.59
Avarua,100,CK,1580011911,83,-21.21,-159.78,82.4,5.1
Bredasdorp,68,ZA,1580011653,87,-34.53,20.04,59.0,6.2
Bengkulu,100,ID,1580011950,58,-3.8,102.27,87.44,0.94
Samarai,79,PG,1580012108,74,-10.62,150.67,84.76,1.8
Waipawa,31,NZ,1580012024,64,-41.41,175.52,82.99,9.8
Kumluca,20,TR,1580012108,78,36.37,30.29,41.11,1.14
Bambous Virieux,40,MU,1580011925,78,-20.34,57.76,80.01,6.2
Luanda,40,AO,1580011917,78,-8.84,13.23,80.6,2.1
Punta Arenas,75,CL,1580011923,70,-53.15,-70.92,48.2,9.3
Rocha,0,UY,1580012110,78,-34.48,-54.33,60.19,2.02
Castro,0,BR,1580011989,93,-24.79,-50.01,61.63,1.27
Puerto Ayora,54,EC,1580011652,31,-0.74,-90.35,75.99,0.45
Lahaina,20,US,1580012111,57,20.88,-156.68,80.6,6.7
Yabluniv,29,UA,1580012111,92,48.4,24.94,19.4,1.0
Yangi Marg`ilon,75,UZ,1580012006,83,40.43,71.72,37.4,3.1
Natal,20,BR,1580012016,88,-5.79,-35.21,80.6,3.6
Timra,100,SE,1580012112,74,62.49,17.33,41.0,2.1
Tiksi,0,RU,1580011966,67,71.69,128.87,-28.1,2.32
Diego de Almagro,0,CL,1580012113,78,-26.37,-70.05,62.98,0.13
Husavik,90,IS,1580011974,92,66.04,-17.34,26.6,3.1
Thinadhoo,100,MV,1580012113,80,0.53,72.93,82.31,6.27
Khanbari,48,NP,1580012114,77,27.37,87.2,37.15,1.21
Haines Junction,100,CA,1580012114,99,60.75,-137.51,-14.78,2.65
Port Elizabeth,75,ZA,1580011751,82,-33.92,25.57,68.0,10.3
Buraidah,0,SA,1580011954,100,26.33,43.98,37.4,4.6
Banjar,20,ID,1580012115,70,-8.19,114.97,89.6,3.1
Katsuura,75,JP,1580012002,93,35.13,140.3,45.0,3.1
Khasan,0,RU,1580012116,49,42.43,130.64,25.86,3.55
Broome,90,US,1580012116,99,42.25,-75.83,35.01,3.1
Half Moon Bay,90,US,1580011961,100,37.46,-122.43,61.0,2.36
Port Augusta,0,AU,1580012117,60,-32.5,137.77,93.0,7.7
Khanpur,0,PK,1580012117,52,28.65,70.66,59.31,4.45
Puerto Carreno,100,CO,1580011968,50,6.19,-67.49,81.36,2.12
Alberton,62,CA,1580012118,55,46.82,-64.07,24.01,2.88
Tuktoyaktuk,90,CA,1580011658,69,69.45,-133.04,-13.0,10.8
Vila Velha,75,BR,1580012027,94,-20.33,-40.29,71.6,1.0
Pevek,100,RU,1580011963,96,69.7,170.31,-9.44,0.2
Sao Bartolomeu de Messines,1,PT,1580012119,100,37.26,-8.29,48.99,2.1
Shimoda,75,JP,1580012120,87,34.67,138.95,42.8,8.7
Phangnga,20,TH,1580012120,58,8.45,98.53,86.0,1.5
Mayskiy,40,RU,1580012121,82,47.69,40.1,35.6,5.0
Kodiak,90,US,1580012025,61,57.79,-152.41,17.6,9.3
Constantine,75,DZ,1580012121,57,36.37,6.61,41.0,2.24
Mogwase,0,ZA,1580012122,69,-25.18,27.27,67.6,1.59
Hong Kong,40,HK,1580011899,77,22.29,114.16,63.0,5.1
Kudahuvadhoo,100,MV,1580011997,79,2.67,72.89,81.36,6.67
Brae,100,GB,1580011986,87,60.4,-1.35,46.4,9.3
Popondetta,69,PG,1580012124,67,-8.75,148.25,85.08,2.08
Paracuru,20,BR,1580012124,74,-3.41,-39.03,86.0,4.1
Butaritari,100,KI,1580011979,72,3.07,172.79,85.51,4.42
Cayenne,90,GF,1580012124,94,4.93,-52.33,75.2,1.5
Ponta do Sol,40,PT,1580011937,71,32.67,-17.1,57.2,3.1
Hilo,75,US,1580011919,57,19.73,-155.09,80.6,2.1
Quchan,87,IR,1580012126,95,37.11,58.51,17.28,2.4
Sosenskiy,93,RU,1580012126,79,54.06,35.96,28.4,6.0
Greifswald,100,DE,1580012126,91,54.1,13.38,37.0,0.89
Praia,75,CV,1580012127,60,14.92,-23.51,75.2,8.2
Bilibino,100,RU,1580012026,89,68.05,166.44,-3.91,2.36
Nuevo San Carlos,58,GT,1580012128,93,14.6,-91.7,48.99,0.84
Puteyets,91,RU,1580012128,100,65.17,57.09,-14.33,0.58
Sainte-Marie,46,RE,1580012128,65,-20.9,55.55,82.4,2.1
Biloela,100,AU,1580011940,55,-24.42,150.5,86.52,5.27
Port Blair,78,IN,1580012129,70,11.67,92.75,77.85,6.16
Erzin,75,TR,1580012129,52,36.96,36.2,42.8,2.1
Progreso,5,MX,1580012130,73,21.28,-89.67,71.6,3.6
East London,20,ZA,1580011971,83,-33.02,27.91,69.8,6.2
Ibra,74,OM,1580012131,81,22.69,58.53,65.44,3.58
Karratha,0,AU,1580012016,71,-20.74,116.85,85.62,4.26
Chapais,90,CA,1580012131,85,49.78,-74.85,23.0,3.6
Beloha,0,MG,1580012131,85,-25.17,45.05,67.44,4.57
Abdanan,0,IR,1580012132,77,32.99,47.42,33.1,4.7
Otane,0,NZ,1580012132,55,-39.88,176.63,82.0,3.13
La Primavera,100,CO,1580012132,46,5.49,-70.41,82.85,2.59
Kushmurun,100,KZ,1580012133,93,52.45,64.63,20.43,10.95
Ilulissat,92,GL,1580011949,42,69.22,-51.1,6.8,6.2
Nuuk,100,GL,1580012133,85,64.18,-51.72,12.2,2.6
Flinders,40,AU,1580012022,19,-34.58,150.86,100.4,4.6
Tiznit,32,MA,1580012134,91,29.58,-9.5,46.69,1.82
Gornopravdinsk,97,RU,1580012135,98,60.05,69.9,-7.06,2.51
Cherskiy,100,RU,1580012011,96,68.75,161.3,-17.93,1.21
Katherine,84,AU,1580012135,44,-14.47,132.27,95.0,4.1
Kaitangata,5,NZ,1580011925,66,-46.28,169.85,68.0,4.67
Denpasar,20,ID,1580012136,70,-8.65,115.22,89.6,3.1
Dingle,31,PH,1580011953,73,11.0,122.67,84.15,2.33
Katobu,44,ID,1580012137,75,-4.94,122.53,86.47,1.1
Pangnirtung,100,CA,1580012138,99,66.15,-65.71,-36.89,1.33
Denia,97,ES,1580012138,89,38.84,0.11,53.01,4.19
Praia da Vitoria,20,PT,1580012139,93,38.73,-27.07,51.8,1.76
Cao Bang,84,VN,1580012139,66,22.67,106.25,54.19,2.55
Kloulklubed,75,PW,1580012140,79,7.04,134.26,84.2,5.1
Muros,75,ES,1580012140,93,42.78,-9.06,52.0,2.6
Qingquan,100,CN,1580012141,93,30.45,115.26,40.51,0.87
Cairns,90,AU,1580012141,79,-16.92,145.77,86.0,2.6
Banda Aceh,75,ID,1580011687,56,5.56,95.32,83.68,2.52
Shahreza,81,IR,1580012142,73,32.03,51.88,28.17,0.78
Ilheus,75,BR,1580011883,88,-14.79,-39.05,82.4,1.0
Dunedin,0,NZ,1580012142,66,-45.87,170.5,69.01,10.79
Mildura,0,AU,1580012084,25,-34.2,142.15,90.0,4.1
Souillac,40,MU,1580011955,78,-20.52,57.52,80.01,6.2
OEstersund,100,SE,1580012144,75,63.18,14.64,41.0,7.2
Saint-Philippe,75,RE,1580011423,78,-21.36,55.77,78.8,3.6
Turaif,0,SA,1580012029,100,31.67,38.66,35.6,2.1
Puerto Escondido,20,MX,1580012050,74,15.85,-97.07,78.8,0.85
Zhoucheng,100,CN,1580012145,38,35.91,116.31,41.4,1.06
Kassala,0,SD,1580012145,89,15.45,36.4,52.2,3.03
Kaeo,5,NZ,1580012145,62,-35.1,173.78,87.01,0.45
Cabedelo,20,BR,1580011928,88,-6.98,-34.83,80.6,2.1
Geraldton,15,AU,1580012146,54,-28.77,114.6,82.4,5.7
Severo-Kuril'sk,100,RU,1580011961,92,50.68,156.12,18.86,17.99
Buenos Aires,0,AR,1580011932,69,-34.61,-58.38,80.6,5.1
Fairview,1,US,1580012147,86,40.81,-74.0,45.0,3.25
Montero,64,BO,1580012147,74,-17.33,-63.25,78.8,3.1
San Patricio,100,MX,1580012148,70,19.22,-104.7,77.38,3.37
Nayudupet,20,IN,1580012149,77,13.9,79.9,68.0,2.1
Miramar,1,US,1580011622,87,25.99,-80.23,64.4,1.5
Saint Anthony,90,US,1580012149,86,45.02,-93.22,28.99,3.1
Ayan,0,RU,1580012150,70,56.45,138.17,-11.85,5.29
Cidreira,74,BR,1580011928,68,-30.18,-50.21,75.56,6.4
Treinta y Tres,0,UY,1580011919,94,-33.23,-54.38,65.46,3.24
Mbandaka,90,CD,1580012151,34,0.05,18.26,67.51,1.03
Tombouctou,100,ML,1580012151,13,20.0,-3.0,70.79,1.75
Mayumba,44,GA,1580012026,75,-3.43,10.66,83.14,2.56
Yumen,0,CN,1580012152,61,40.28,97.2,20.57,0.48
Daru,36,PG,1580012152,46,-9.08,143.21,96.6,1.26
Great Bend,1,US,1580012045,100,38.36,-98.76,33.01,2.1
At-Bashi,28,KG,1580012153,68,41.17,75.81,-2.97,1.5
Gamba,60,GA,1580012153,85,-2.65,10.0,78.03,0.93
Jianhu,75,CN,1580012154,93,29.98,120.57,52.0,3.0
General Pico,0,AR,1580012155,30,-35.66,-63.76,74.01,3.06
Keetmanshoop,0,NA,1580012156,77,-26.58,18.13,59.0,3.1
Fallon,20,US,1580012156,52,39.47,-118.78,50.0,1.56
Chabahar,75,IR,1580012157,82,25.29,60.64,62.6,4.1
Port Hardy,90,CA,1580011967,81,50.7,-127.42,46.4,10.3
Soyo,98,AO,1580012158,83,-6.13,12.37,80.44,4.36
Djambala,81,CG,1580012159,83,-2.54,14.75,71.33,0.39
Beitbridge,0,ZW,1580012159,57,-22.22,30.0,74.71,2.19
Okha,0,RU,1580012159,85,53.57,142.95,-9.99,8.8
Nome,1,US,1580012160,75,64.5,-165.41,-18.4,1.5
Vikhorevka,100,RU,1580012160,58,56.12,101.16,26.01,3.0
Sao Filipe,21,CV,1580011949,63,14.9,-24.5,73.94,8.38
Hobyo,100,SO,1580012161,81,5.35,48.53,77.79,4.62
Svobodnyy,24,RU,1580012161,88,51.4,128.13,-7.04,2.84
Fairbanks,1,US,1580011940,74,64.84,-147.72,-9.99,2.7
Bubaque,92,GW,1580012162,70,11.28,-15.83,77.86,3.47
Kibala,37,TD,1580012162,36,9.11,18.35,62.6,2.25
Lodja,100,CD,1580012163,69,-3.48,23.43,70.84,1.04
Kenai,1,US,1580011960,64,60.55,-151.26,8.01,6.96
Sili,100,CN,1580012163,96,28.4,117.17,44.56,2.59
Chulym,100,RU,1580012164,93,55.1,80.96,1.99,5.91
Brenham,90,US,1580012164,82,30.17,-96.4,62.6,1.5
Tura,0,IN,1580012037,55,25.52,90.22,63.28,1.51
Saint-Pierre,90,RE,1580012165,83,-21.34,55.48,82.4,3.1
Arica,90,CL,1580012165,78,-18.48,-70.3,77.0,1.0
Lagoa,100,PT,1580011963,65,39.05,-27.98,57.72,3.86
Waddan,80,LY,1580012165,31,29.16,16.14,55.09,1.68
Aksu,100,CN,1580012166,71,41.12,80.26,24.3,0.84
Preobrazheniye,0,RU,1580012166,30,42.9,133.91,25.66,0.93
Narsaq,96,GL,1580012028,61,60.92,-46.05,14.0,2.6
Saint George,1,US,1580011981,53,37.1,-113.58,50.0,0.43
Salinopolis,100,BR,1580012167,81,-0.61,-47.36,82.81,5.54
Sumbe,100,AO,1580012168,88,-11.21,13.84,75.87,0.63
Touros,75,BR,1580012168,88,-5.2,-35.46,80.6,1.5
Bathsheba,40,BB,1580011941,88,13.22,-59.52,75.2,1.0
Inhambane,20,MZ,1580011985,83,-23.86,35.38,77.0,4.44
Makaryev,97,RU,1580012169,90,57.88,43.81,19.54,3.81
Tamiahua,65,MX,1580012169,89,21.27,-97.45,72.19,4.63
Saint Lawrence,20,MT,1580012170,100,36.06,14.2,57.99,3.6
Manzanillo,8,CU,1580012170,85,20.34,-77.12,68.68,2.23
Tenabo,5,MX,1580012170,100,20.05,-90.23,66.2,2.21
Torbay,5,CA,1580011767,78,47.67,-52.73,19.99,6.2
Abu Samrah,0,SY,1580012171,62,35.3,37.18,37.33,3.5
Dali,0,CN,1580012171,40,25.7,100.18,48.34,1.19
Arman,100,RU,1580012007,92,59.7,150.17,-2.0,8.61
Rome,90,US,1580011792,100,43.21,-75.46,35.6,2.1
Constitucion,0,CL,1580012058,67,-35.33,-72.42,63.21,2.55
Karaton,20,ID,1580012033,70,-6.34,106.1,86.0,2.1
Lavrentiya,0,RU,1580011975,77,65.58,-171.0,-13.47,1.41
Moose Factory,90,CA,1580012173,100,51.26,-80.61,26.6,2.1
Egvekinot,67,RU,1580012173,89,66.32,-179.17,-5.75,2.17
George Town,20,MY,1580011646,58,5.41,100.34,87.8,4.6
Kifri,0,IQ,1580012174,62,34.7,44.97,43.92,2.79
Laguna,90,US,1580011953,87,38.42,-121.42,57.99,3.6
Laas,100,IT,1580011988,92,46.62,10.7,33.01,1.0
Black River,20,JM,1580012175,69,18.03,-77.85,75.2,2.1
Lyuban,25,BY,1580012175,96,52.8,28.0,30.92,3.49
Te Anau,100,NZ,1580012176,79,-45.42,167.72,63.37,3.3
Nemuro,20,JP,1580011970,61,43.32,145.57,17.6,9.3
Korla,0,CN,1580012176,46,41.76,86.15,15.31,0.73
Bone,90,DE,1580012177,100,51.97,12.14,34.0,1.5
Dakar,97,SN,1580011960,68,14.69,-17.44,71.6,10.3
Padang,93,ID,1580012034,87,-0.95,100.35,77.05,0.52
Ankola,0,IN,1580012178,40,14.67,74.3,74.35,1.71
Phek,0,IN,1580012178,50,25.67,94.5,52.66,0.5
Jatai,45,BR,1580012122,90,-17.88,-51.71,70.23,0.72
El Chichicaste,0,HN,1580012178,79,14.07,-86.3,61.65,0.92
Sungaipenuh,80,ID,1580012179,84,-2.08,101.38,74.26,0.52
'Ahuimanu,75,US,1580011946,78,21.44,-157.84,80.6,3.6
Marshall,1,US,1580012179,86,34.38,-86.33,36.0,1.06
Gaya,0,IN,1580011931,81,24.78,85.0,53.6,2.46
Khvatovka,91,RU,1580012180,89,52.35,46.56,23.95,9.42
Huaicheng,93,CN,1580012180,77,23.91,112.19,54.05,2.06
Betare Oya,99,CM,1580012180,22,5.6,14.08,58.95,2.29
Farafangana,0,MG,1580012181,56,-22.82,47.83,77.47,2.89
Alice Springs,0,AU,1580012181,9,-23.7,133.88,96.8,6.2
Saint-Joseph,90,RE,1580012181,83,-21.37,55.62,82.4,3.1
Akureyri,90,IS,1580012181,92,65.68,-18.09,26.6,3.1
Los Llanos de Aridane,29,ES,1580011989,58,28.66,-17.92,59.0,3.6
Ginda,0,IN,1580012182,41,30.69,78.49,43.03,1.92
Lakki,0,PK,1580012182,62,32.61,70.91,51.24,0.65
Najran,0,SA,1580012182,62,17.49,44.13,51.8,2.1
Uyar,100,RU,1580012183,86,55.81,94.32,23.56,3.26
Norman Wells,20,CA,1580012041,68,65.28,-126.83,-14.8,4.1
San Juan,76,AR,1580012047,24,-31.54,-68.54,90.91,7.12
Mahanoro,3,MG,1580012184,68,-19.9,48.8,78.76,5.58
Taoudenni,10,ML,1580012068,26,22.68,-3.98,67.41,2.07
Manicore,100,BR,1580012184,94,-5.81,-61.3,72.79,1.22
Moree,90,AU,1580012184,58,-29.47,149.85,86.0,4.1
Nouadhibou,100,MR,1580012185,63,20.93,-17.03,64.4,9.8
Shenjiamen,100,CN,1580012185,89,29.96,122.3,53.98,10.88
Sylvan Lake,5,CA,1580012185,85,52.32,-114.09,12.2,1.5
Tenneville,13,BE,1580012186,100,50.09,5.53,39.2,1.0
Esmeralda,0,CU,1580012186,94,21.85,-78.12,68.0,2.6
Fare,26,PF,1580012187,74,-16.7,-151.02,83.05,4.77
Scarborough,89,GB,1580012187,93,54.28,-0.4,45.0,4.1
Pahrump,1,US,1580012055,36,36.21,-115.98,52.0,1.5
Ixtapa,90,MX,1580012036,94,20.7,-105.2,71.6,1.5
Bowen,90,AU,1580011999,83,-20.02,148.23,84.0,3.1
Manta,40,EC,1580012189,78,-0.95,-80.73,78.8,3.6
Skjervoy,64,NO,1580012189,70,70.03,20.97,23.05,3.46
Ritchie,0,ZA,1580012189,82,-29.04,24.6,68.0,5.1
Portland,90,US,1580012117,76,45.52,-122.68,53.6,3.05
Tikapur,0,NP,1580012190,78,28.5,81.13,51.01,0.89
Weiser,90,US,1580012042,81,44.25,-116.97,42.8,3.6
Del Rio,1,US,1580011922,93,29.36,-100.9,57.2,2.6
Taltal,0,CL,1580012052,83,-25.4,-70.48,67.77,0.77
Hattiesburg,40,US,1580012191,93,31.33,-89.29,44.6,0.45
Nara,75,JP,1580012191,66,34.69,135.8,50.0,3.6
Bikaner,0,IN,1580011986,37,28.02,73.3,61.39,3.13
Savannah Bight,20,HN,1580012192,59,16.45,-85.85,78.42,3.53
Dudinka,75,RU,1580012054,77,69.41,86.18,5.0,5.0
Murray Bridge,5,AU,1580012179,61,-35.12,139.27,84.99,2.24
Lewisporte,20,CA,1580012193,78,49.25,-55.05,17.6,5.7
Prieska,0,ZA,1580012193,57,-29.66,22.75,65.07,3.74
Razole,4,IN,1580011957,71,16.48,81.83,76.1,0.31
Doha,0,QA,1580012194,43,25.29,51.53,57.2,5.7
Manaure,73,CO,1580012194,89,11.78,-72.44,77.81,5.61
Ust-Nera,100,RU,1580012194,98,64.57,143.2,-36.72,1.36
Mirny,90,RU,1580012195,83,62.54,113.96,-5.8,4.0
Mahebourg,40,MU,1580011936,78,-20.41,57.7,80.01,6.2
Krasnokamensk,96,RU,1580012195,88,50.1,118.04,1.4,1.75
Paraiso,20,CR,1580012110,68,9.84,-83.87,70.0,5.7
Bambanglipuro,2,ID,1580012196,65,-7.95,110.28,85.82,3.94
Piro,0,IN,1580012196,75,25.33,84.42,55.42,2.45
Leh,100,IN,1580012197,89,34.17,77.58,-4.67,1.88
Flin Flon,100,CA,1580012048,96,54.77,-101.86,18.68,2.53
Vao,91,NC,1580012197,79,-22.67,167.48,77.95,6.98
Ribeira Grande,99,PT,1580011956,74,38.52,-28.7,54.21,2.5
Yulara,0,AU,1580011990,11,-25.24,130.99,96.8,4.6
Hibbing,90,US,1580012198,85,47.43,-92.94,27.0,2.1
Mnogovershinnyy,4,RU,1580011924,83,53.94,139.92,-9.89,4.46
Ulaangom,100,MN,1580012199,91,49.98,92.07,-4.72,1.44
Turan,75,VN,1580012178,61,16.07,108.22,78.8,3.1
Curanilahue,0,CL,1580012199,85,-37.47,-73.35,61.23,3.48
Hwange,17,ZW,1580012200,83,-18.37,26.5,67.46,1.46
Ubari,49,LY,1580012200,20,26.59,12.78,55.18,4.09
Kiryat Gat,0,IL,1580011891,86,31.61,34.76,44.01,0.73
Elbasan,40,AL,1580012043,93,41.11,20.08,48.2,2.1
Lieksa,75,FI,1580012201,95,63.32,30.02,16.11,1.86
Faanui,62,PF,1580011936,72,-16.48,-151.75,83.16,3.93
Salalah,75,OM,1580012202,78,17.02,54.09,77.0,1.5
Kamenka,3,RU,1580012203,84,51.32,42.77,28.99,4.92
Matay,0,EG,1580012203,73,28.42,30.78,41.23,2.64
Srednekolymsk,100,RU,1580011925,92,67.45,153.68,-23.49,1.04
Cabo San Lucas,75,MX,1580012033,77,22.89,-109.91,68.0,2.1
Bilma,58,NE,1580011968,17,18.69,12.92,59.02,4.92
Kidal,100,ML,1580012033,10,18.44,1.41,69.96,3.57
Kutno,90,PL,1580012205,100,52.23,19.36,33.01,1.5
Hun,80,LY,1580012205,31,29.13,15.95,55.09,1.68
Namanyere,100,TZ,1580012205,94,-7.52,31.05,62.46,1.2
Ostroda,90,PL,1580012206,93,53.7,19.96,35.6,3.1
Leshukonskoye,86,RU,1580012206,98,64.9,45.76,-4.61,1.29
Crnici,90,BA,1580012207,100,43.13,17.87,44.6,0.5
Huangmei,100,CN,1580012207,90,30.19,116.03,42.98,2.34
Ferrol,52,ES,1580012207,93,43.48,-8.24,46.99,2.6
Beni,100,CD,1580012208,47,0.5,29.47,71.35,0.56
Sai Buri,40,TH,1580012208,74,6.7,101.62,82.4,3.1
Provideniya,0,RU,1580011673,69,64.38,-173.3,-5.44,1.52
Khovd,100,MN,1580012209,55,48.01,91.64,9.9,0.73
Northam,31,GB,1580012028,91,51.03,-4.22,46.99,4.02
Mogadishu,100,SO,1580012209,82,2.04,45.34,81.23,10.34
Colares,0,PT,1580012210,100,38.8,-9.45,51.01,1.5
Manaus,100,BR,1580012156,94,-3.1,-60.02,78.8,1.0
Scalea,100,IT,1580012211,96,39.81,15.8,46.0,0.34
Pacific Grove,90,US,1580012211,87,36.62,-121.92,60.01,0.68
Abu Kamal,0,SY,1580012211,74,34.45,40.92,42.15,3.94
Aljezur,0,PT,1580012212,99,37.32,-8.8,48.99,0.45
Labuhan,0,ID,1580012025,69,-6.88,112.21,84.81,2.16
Puerto Quijarro,7,BO,1580012213,82,-17.78,-57.77,73.65,0.52
Eureka,90,US,1580011895,87,40.8,-124.16,59.0,4.1
Shingu,75,JP,1580012213,93,33.73,135.98,50.0,2.1
Seoul,1,KR,1580012067,45,37.57,126.98,50.0,0.5
Safi,3,MA,1580012214,89,32.3,-9.24,50.88,2.47
Mier,1,MX,1580012214,82,26.43,-99.15,64.99,2.52
Puri,0,IN,1580011984,68,19.8,85.85,69.8,1.87
Manokwari,76,ID,1580012215,71,-0.87,134.08,82.04,2.62
Carutapera,100,BR,1580011930,81,-1.2,-46.02,82.24,8.91
Distrikt Brokopondo,88,SR,1580012216,94,4.75,-55.17,73.54,2.23
Izberbash,0,RU,1580012216,69,42.57,47.86,33.8,5.0
Zyryanka,100,RU,1580012216,91,65.75,150.85,-25.98,2.52
Lompoc,90,US,1580011766,87,34.64,-120.46,57.0,5.1
Panguipulli,90,CL,1580012217,88,-39.63,-72.33,64.4,1.0
Luderitz,0,NA,1580011960,77,-26.65,15.16,68.0,7.2
Omboue,2,GA,1580012017,95,-1.57,9.26,75.56,0.66
Novyy Yegorlyk,100,RU,1580012218,65,46.39,41.87,39.79,9.7
Champerico,38,GT,1580012218,85,14.3,-91.92,75.31,1.84
Maceio,75,BR,1580012219,94,-9.67,-35.74,78.8,2.6
Salto de Agua,40,MX,1580012219,100,17.62,-92.37,71.6,3.1
Davenda,0,RU,1580012219,87,53.56,119.32,-1.28,1.37
Imbituba,33,BR,1580012212,88,-28.24,-48.67,73.4,2.1
Kizilskoye,100,RU,1580012220,95,52.73,58.89,24.71,7.69
Aykhal,100,RU,1580012220,74,66.0,111.5,-25.6,3.0
Semnan,0,IR,1580012220,57,35.57,53.4,31.14,1.16
Grindavik,90,IS,1580011952,80,63.84,-22.43,37.4,9.8
Dodoma,40,TZ,1580012221,94,-6.17,35.74,68.0,3.1
Polson,90,US,1580012221,98,47.69,-114.16,37.99,0.78
Khorixas,43,NA,1580012222,34,-20.37,14.97,71.85,0.51
Mount Gambier,90,AU,1580011981,52,-37.83,140.77,69.8,6.7
Avanuorri,75,NO,1580012222,73,71.0,24.66,19.4,10.3
Aklavik,90,CA,1580011957,68,68.22,-135.01,-14.8,7.2
Jacksonville,1,US,1580011681,75,30.33,-81.66,51.8,4.02
Surgut,40,RU,1580012223,91,61.25,73.42,1.4,3.0
Sorland,100,NO,1580011949,74,67.67,12.69,35.04,13.34
Vorukh,100,TJ,1580012224,79,39.85,70.58,24.49,2.16
Tiarei,20,PF,1580012224,70,-17.53,-149.33,86.0,4.6
Hanchuan,90,CN,1580012224,86,30.65,113.77,37.4,4.0
Gaevle,78,SE,1580012225,78,60.67,17.14,41.0,2.24
Yatou,100,CN,1580012225,62,37.15,122.38,40.77,8.27
Saint-Honore,90,CA,1580012226,92,48.53,-71.08,27.0,8.2
Tautira,20,PF,1580012226,70,-17.73,-149.15,86.0,4.6
Yarovoy,34,RU,1580012226,88,52.93,78.58,5.54,6.98
Makakilo City,75,US,1580012227,78,21.35,-158.09,80.6,3.6
Izhma,91,RU,1580012228,99,65.01,53.91,-12.41,1.09
Stepnyak,96,KZ,1580012228,82,52.83,70.78,12.4,10.93
Dicabisagan,96,PH,1580012228,83,17.08,122.42,76.06,2.44
Uvarovka,100,RU,1580012228,83,55.53,35.61,27.0,4.53
Urumqi,90,CN,1580011942,91,43.8,87.6,1.4,1.0
Okuchi,75,JP,1580012229,87,32.07,130.62,53.6,4.6
Elliot Lake,90,CA,1580012229,99,46.38,-82.63,32.0,2.1
Kodino,27,RU,1580012230,97,63.72,39.64,5.36,1.83
Livingston,90,GB,1580012230,81,55.9,-3.52,46.4,3.6
Afogados da Ingazeira,79,BR,1580012230,84,-7.75,-37.64,75.13,4.7
Cadillac,90,US,1580012231,98,44.25,-85.4,34.0,2.6
Guayaramerin,100,BO,1580012231,84,-10.84,-65.36,76.62,1.02
Omsukchan,100,RU,1580011955,100,62.53,155.8,-26.68,4.51
Vila,75,PT,1580011986,100,42.03,-8.16,52.0,3.6
Dubai,20,AE,1580012232,56,25.26,55.3,68.0,5.7
Heraclea,0,TR,1580012233,46,37.51,34.05,31.87,1.32
Homer,75,US,1580012233,66,59.64,-151.55,10.4,4.6
Caravelas,100,BR,1580011680,84,-17.71,-39.25,79.09,8.8
Rundu,0,NA,1580012061,35,-17.93,19.77,69.8,1.0
Abha,20,SA,1580012234,45,18.22,42.51,44.6,3.6
Garoowe,36,SO,1580012234,79,8.41,48.48,72.57,2.96
Khor,95,RU,1580012235,87,47.89,134.95,0.55,6.21
Klaksvik,100,FO,1580012235,100,62.23,-6.59,44.6,7.7
Juneau,90,US,1580012044,96,58.3,-134.42,32.0,2.6
Rantauprapat,16,ID,1580011948,69,2.1,99.83,86.76,0.69
Batagay-Alyta,0,RU,1580012236,54,67.8,130.41,-33.7,2.12
Ulladulla,40,AU,1580012237,19,-35.35,150.47,100.4,4.6
Kirakira,3,SB,1580012237,77,-10.45,161.92,84.58,3.2
Anadyr,90,RU,1580012004,78,64.75,177.48,15.8,5.0
Leningradskiy,98,RU,1580012036,96,69.38,178.42,-12.55,1.84
Araceli,100,PH,1580012238,83,10.55,119.99,80.98,3.28
Arawa,17,PG,1580012238,72,-6.21,155.54,84.7,3.84
Ugoofaaru,100,MV,1580012239,66,5.67,73.0,82.18,2.43
Tazovsky,72,RU,1580012055,98,67.47,78.7,-8.86,2.66
Zhongshu,100,CN,1580012239,89,24.52,103.77,36.68,1.44
Hammerfest,75,NO,1580012239,73,70.66,23.68,19.4,11.3
College,1,US,1580012240,74,64.86,-147.8,-9.99,2.05
Qaqortoq,89,GL,1580012044,61,60.72,-46.03,14.0,2.6
Nola,67,IT,1580012240,100,40.92,14.53,53.6,1.0
Ilebo,0,CD,1580012241,83,-4.32,20.58,70.81,0.58
Zabid,100,YE,1580012241,77,14.2,43.32,71.24,4.53
Porto-Novo,21,BJ,1580011986,73,6.5,2.6,71.6,2.1
Nizhniy Tsasuchey,16,RU,1580012242,73,50.52,115.13,6.26,1.6
Aketi,69,CD,1580012061,44,2.74,23.78,64.92,0.89
Mehamn,100,NO,1580012242,76,71.04,27.85,18.21,9.14
Barabai,85,ID,1580012243,88,-2.58,115.38,79.45,0.66
Comodoro Rivadavia,0,AR,1580012243,40,-45.87,-67.5,71.6,10.3
Riyadh,0,SA,1580012243,60,24.69,46.72,41.0,9.8
Talnakh,75,RU,1580011972,77,69.49,88.4,5.0,5.0
Lagos,66,NG,1580012150,77,6.58,3.75,69.8,2.12
Mwinilunga,100,ZM,1580012244,97,-11.74,24.43,63.66,0.24
Prince George,1,CA,1580012059,86,53.92,-122.75,32.0,2.1
Pangai,40,TO,1580012245,74,-19.8,-174.35,84.2,4.1
Abbeville,73,FR,1580012245,100,50.1,1.83,39.0,2.6
Sao Miguel do Araguaia,100,BR,1580012246,97,-13.28,-50.16,72.52,2.05
Marabba,0,SD,1580012246,21,12.35,32.18,56.17,4.01
Longyearbyen,7,SJ,1580011935,70,78.22,15.64,-2.2,1.0
Bayonet Point,1,US,1580012247,76,28.33,-82.68,57.99,3.37
Painesville,90,US,1580012247,80,41.72,-81.25,35.01,6.7
Sistranda,75,NO,1580012247,93,63.73,8.83,45.0,9.3
Tabou,26,CI,1580012248,96,4.42,-7.35,76.82,0.39
Angren,100,UZ,1580012248,90,41.02,70.14,28.56,1.32
Carupano,88,VE,1580012248,91,10.67,-63.26,69.39,1.26
Casablanca,40,MA,1580011851,100,33.59,-7.62,52.0,2.6
Chany,100,RU,1580012249,92,55.31,76.76,5.97,6.49
Naze,75,JP,1580012249,94,28.37,129.48,69.8,6.7
Noshiro,75,JP,1580012249,59,40.2,140.02,35.6,2.6
San Quintin,0,MX,1580012053,85,30.48,-115.95,59.31,2.23
Vilhena,20,BR,1580012250,94,-12.74,-60.15,73.4,2.6
Qeshm,40,IR,1580012250,93,26.96,56.27,55.4,3.1
Honningsvag,100,NO,1580012250,70,70.98,25.97,22.96,10.42
Camara de Lobos,40,PT,1580012251,71,32.63,-16.97,57.2,3.1
Whitehorse,90,CA,1580012251,76,60.72,-135.05,-2.99,4.1
Puerto del Rosario,0,ES,1580012251,76,28.5,-13.86,57.2,3.6
Mackay,75,AU,1580012252,88,-21.15,149.2,87.01,8.7
Kondol,100,RU,1580012252,63,52.82,45.06,32.0,9.04
Dolisie,60,CG,1580012252,94,-4.2,12.67,72.82,0.67
Beringovskiy,100,RU,1580012057,85,63.05,179.32,14.74,2.62
Adrar,100,MR,1580011687,23,20.5,-10.07,73.99,4.73
Zeya,18,RU,1580012253,89,53.75,127.27,-16.19,1.6
Port Macquarie,32,AU,1580011980,52,-31.43,152.92,89.6,5.7
Umea,90,SE,1580012254,100,63.83,20.26,28.99,3.1
Kerrobert,90,CA,1580012254,95,51.92,-109.13,32.0,7.7
Terrace,90,CA,1580012107,100,54.52,-128.6,35.6,1.81
Nishihara,90,JP,1580012255,94,26.18,127.76,73.4,6.2
Great Falls,1,US,1580012052,86,47.5,-111.3,36.0,2.6
Morgan City,90,US,1580011989,87,29.7,-91.21,55.4,2.6
Burgeo,0,CA,1580012203,78,47.62,-57.62,24.75,2.03
Krutinka,94,RU,1580012256,91,56.01,71.51,12.27,7.3
Road Town,90,VG,1580012017,78,18.42,-64.62,77.0,4.02
Grand Gaube,40,MU,1580012235,78,-20.01,57.66,80.01,6.2
Beidao,55,CN,1580012257,58,34.57,105.89,32.88,1.01
West Plains,1,US,1580012258,80,36.73,-91.85,42.8,1.93
Neftcala,0,AZ,1580012258,69,39.37,49.25,44.44,6.67
Upata,100,VE,1580012258,90,8.01,-62.4,69.33,2.57
Basingstoke,100,GB,1580012098,93,51.26,-1.09,46.0,4.1
Amahai,100,ID,1580012259,75,-3.33,128.92,83.23,1.89
Jalu,43,LY,1580011933,46,29.03,21.55,50.99,4.2
Terrace Bay,100,CA,1580012259,94,48.78,-87.1,24.31,4.68
Mahajanga,75,MG,1580012260,94,-15.72,46.32,75.2,2.1
Rosiesti,38,RO,1580012260,50,46.43,27.88,32.25,0.98
Abu Dhabi,40,AE,1580012108,63,24.47,54.37,64.4,7.2
Salinas,75,US,1580011420,93,36.68,-121.66,61.0,1.62
Zhezkazgan,90,KZ,1580012262,92,47.8,67.71,17.6,9.0
Luchegorsk,86,RU,1580012262,84,46.48,134.26,3.33,4.04
Am Timan,36,TD,1580012263,21,11.03,20.28,56.32,2.84
Ati,0,TD,1580012263,22,13.22,18.34,57.56,5.19
Simav,43,TR,1580012263,78,39.09,28.98,17.6,0.96
Olafsvik,77,IS,1580012263,82,64.89,-23.71,31.23,6.95
Kavali,12,IN,1580012264,61,14.92,79.98,74.48,2.71
Winnemucca,1,US,1580012126,70,40.97,-117.74,42.8,3.1
Goderich,100,CA,1580012264,93,43.75,-81.72,36.0,0.89
Basco,85,PH,1580012265,79,20.45,121.97,79.38,8.31
Vostok,51,RU,1580011990,77,46.49,135.88,5.63,2.99
Raton,1,US,1580012017,68,36.9,-104.44,34.0,3.1
Kavieng,48,PG,1580012266,72,-2.57,150.8,84.87,5.23
Sakakah,75,SA,1580011713,70,29.97,40.21,44.6,2.41
Canon City,1,US,1580012266,44,38.44,-105.24,39.99,4.1
Talaya,100,RU,1580012266,95,61.38,152.75,-28.32,3.67
Chumikan,0,RU,1580012267,73,54.72,135.31,-4.05,8.65
Sovetskiy,91,RU,1580012267,98,61.36,63.58,-5.19,1.54
Wilmington,1,US,1580012264,75,34.23,-77.94,46.99,2.6
Ginir,100,ET,1580012233,81,7.13,40.7,60.08,0.36
Luena,100,AO,1580012269,98,-11.78,19.92,63.81,1.61
Arrondissement de Dreux,90,FR,1580012269,100,48.67,1.25,39.99,1.0
Gambela,100,ET,1580012165,33,8.25,34.58,71.85,1.01
Mumford,95,GH,1580012270,90,5.26,-0.76,72.14,1.14
